[
  {
    "id": 1,
    "name": "Nicole Amor",
    "rank": "Sergeant 1st Class",
    "hometown": "White Bear Lake, Minnesota",
    "state": "MN",
    "lat": 45.0836,
    "lng": -93.0097,
    "date": "2026-03-01",
    "operation": "Operation Epic Fury",
    "branch": "Army Reserve",
    "photo": null
  },
  {
    "id": 2,
    "name": "Declan Coady",
    "rank": "Sergeant",
    "hometown": "West Des Moines, Iowa",
    "state": "IA",
    "lat": 41.5772,
    "lng": -93.7113,
    "date": "2026-03-01",
    "operation": "Operation Epic Fury",
    "branch": "Army Reserve",
    "photo": null
  },
  {
    "id": 3,
    "name": "Cody Khork",
    "rank": "Captain",
    "hometown": "Winter Haven, Florida",
    "state": "FL",
    "lat": 28.0222,
    "lng": -81.7329,
    "date": "2026-03-01",
    "operation": "Operation Epic Fury",
    "branch": "Army Reserve",
    "photo": null
  },
  {
    "id": 4,
    "name": "Jeffrey O'Brien",
    "rank": "Major",
    "hometown": "Indianola, Iowa",
    "state": "IA",
    "lat": 41.358,
    "lng": -93.5574,
    "date": "2026-03-01",
    "operation": "Operation Epic Fury",
    "branch": "Army Reserve",
    "photo": null
  },
  {
    "id": 5,
    "name": "Noah Tietjens",
    "rank": "Sergeant 1st Class",
    "hometown": "Bellevue, Nebraska",
    "state": "NE",
    "lat": 41.1367,
    "lng": -95.8903,
    "date": "2026-03-01",
    "operation": "Operation Epic Fury",
    "branch": "Army Reserve",
    "photo": null
  }
]
