[
  {
    "id": 1,
    "name": "Nicole Amor",
    "rank": "Sergeant 1st Class",
    "hometown": "White Bear Lake, Minnesota",
    "state": "MN",
    "lat": 45.0836,
    "lng": -93.0097,
    "date": "2026-03-01",
    "operation": "Operation Epic Fury",
    "branch": "Army Reserve",
    "photo": null
  },
  {
    "id": 2,
    "name": "Declan Coady",
    "rank": "Sergeant",
    "hometown": "West Des Moines, Iowa",
    "state": "IA",
    "lat": 41.5772,
    "lng": -93.7113,
    "date": "2026-03-01",
    "operation": "Operation Epic Fury",
    "branch": "Army Reserve",
    "photo": null
  },
  {
    "id": 3,
    "name": "Cody Khork",
    "rank": "Captain",
    "hometown": "Winter Haven, Florida",
    "state": "FL",
    "lat": 28.0222,
    "lng": -81.7329,
    "date": "2026-03-01",
    "operation": "Operation Epic Fury",
    "branch": "Army Reserve",
    "photo": null
  },
  {
    "id": 4,
    "name": "Jeffrey O'Brien",
    "rank": "Major",
    "hometown": "Indianola, Iowa",
    "state": "IA",
    "lat": 41.358,
    "lng": -93.5574,
    "date": "2026-03-01",
    "operation": "Operation Epic Fury",
    "branch": "Army Reserve",
    "photo": null
  },
  {
    "id": 5,
    "name": "Noah Tietjens",
    "rank": "Sergeant 1st Class",
    "hometown": "Bellevue, Nebraska",
    "state": "NE",
    "lat": 41.1367,
    "lng": -95.8903,
    "date": "2026-03-01",
    "operation": "Operation Epic Fury",
    "branch": "Army Reserve",
    "photo": null
  },
  {
    "id": 6,
    "name": "Robert M. Marzan",
    "rank": "Chief Warrant Officer 3",
    "hometown": "Sacramento, California",
    "state": "CA",
    "lat": 38.5810606,
    "lng": -121.493895,
    "date": "2026-03-01",
    "operation": "Operation Epic Fury",
    "branch": "Army Reserve",
    "photo": null
  },
  {
    "id": 7,
    "name": "Benjamin N. Pennington",
    "rank": "Sergeant",
    "hometown": "Glendale, Kentucky",
    "state": "KY",
    "lat": 37.6017278,
    "lng": -85.9055189,
    "date": "2026-03-08",
    "operation": "Operation Epic Fury",
    "branch": "Army",
    "photo": null
  },
  {
    "id": 8,
    "name": "Curtis J. Angst",
    "rank": "Captain",
    "hometown": "Wilmington, Ohio",
    "state": "OH",
    "lat": 39.4453393,
    "lng": -83.8285375,
    "date": "2026-03-12",
    "operation": "Operation Epic Fury",
    "branch": "Air National Guard",
    "photo": null
  },
  {
    "id": 9,
    "name": "John A. Klinner",
    "rank": "Major",
    "hometown": "Auburn, Alabama",
    "state": "AL",
    "lat": 32.6098566,
    "lng": -85.4807825,
    "date": "2026-03-12",
    "operation": "Operation Epic Fury",
    "branch": "Air Force",
    "photo": null
  },
  {
    "id": 10,
    "name": "Seth R. Koval",
    "rank": "Captain",
    "hometown": "Mooresville, Indiana",
    "state": "IN",
    "lat": 39.6128243,
    "lng": -86.37416,
    "date": "2026-03-12",
    "operation": "Operation Epic Fury",
    "branch": "Air National Guard",
    "photo": null
  },
  {
    "id": 11,
    "name": "Ashley B. Pruitt",
    "rank": "Technical Sergeant",
    "hometown": "Bardstown, Kentucky",
    "state": "KY",
    "lat": 37.8092463,
    "lng": -85.4669015,
    "date": "2026-03-12",
    "operation": "Operation Epic Fury",
    "branch": "Air Force",
    "photo": null
  },
  {
    "id": 12,
    "name": "Ariana G. Savino",
    "rank": "Major",
    "hometown": "Covington, Washington",
    "state": "WA",
    "lat": 47.3657791,
    "lng": -122.100222,
    "date": "2026-03-12",
    "operation": "Operation Epic Fury",
    "branch": "Air Force",
    "photo": null
  },
  {
    "id": 13,
    "name": "Tyler H. Simmons",
    "rank": "Master Sergeant",
    "hometown": "Columbus, Ohio",
    "state": "OH",
    "lat": 39.9622601,
    "lng": -83.0007065,
    "date": "2026-03-12",
    "operation": "Operation Epic Fury",
    "branch": "Air National Guard",
    "photo": null
  }
]